[
  {
    "id": "us-1",
    "lat": 38.8719,
    "lng": -77.0563,
    "name": "The Pentagon",
    "city": "Arlington",
    "country": "US",
    "type": "military",
    "category": "Headquarters",
    "branch": "DoD",
    "status": "Active",
    "source": "Public Record"
  },
  {
    "id": "us-2",
    "lat": 36.1699,
    "lng": -115.1398,
    "name": "Nellis AFB",
    "city": "Las Vegas",
    "country": "US",
    "type": "military",
    "category": "Air Force Base",
    "branch": "USAF",
    "status": "Active",
    "source": "Public Record"
  },
  {
    "id": "us-3",
    "lat": 30.4583,
    "lng": -91.1403,
    "name": "Fort Polk",
    "city": "Leesville",
    "country": "US",
    "type": "military",
    "category": "Army Base",
    "branch": "US Army",
    "status": "Active",
    "source": "Public Record"
  },
  {
    "id": "us-4",
    "lat": 32.7157,
    "lng": -117.1611,
    "name": "Naval Base San Diego",
    "city": "San Diego",
    "country": "US",
    "type": "military",
    "category": "Naval Base",
    "branch": "US Navy",
    "status": "Active",
    "source": "Public Record"
  },
  {
    "id": "us-5",
    "lat": 36.2363,
    "lng": -115.0341,
    "name": "Creech AFB",
    "city": "Indian Springs",
    "country": "US",
    "type": "military",
    "category": "Drone Operations",
    "branch": "USAF",
    "status": "Active",
    "source": "Public Record"
  },
  {
    "id": "us-6",
    "lat": 38.9983,
    "lng": -76.8739,
    "name": "Fort Meade (NSA HQ)",
    "city": "Fort Meade",
    "country": "US",
    "type": "intelligence",
    "category": "Intelligence Center",
    "branch": "NSA",
    "status": "Active",
    "source": "Public Record"
  },
  {
    "id": "us-7",
    "lat": 38.9072,
    "lng": -77.0365,
    "name": "CIA Headquarters",
    "city": "Langley",
    "country": "US",
    "type": "intelligence",
    "category": "Intelligence Center",
    "branch": "CIA",
    "status": "Active",
    "source": "Public Record"
  },
  {
    "id": "us-8",
    "lat": 38.0293,
    "lng": -78.4767,
    "name": "NSA Sugar Grove",
    "city": "Sugar Grove",
    "country": "US",
    "type": "intelligence",
    "category": "SIGINT Station",
    "branch": "NSA",
    "status": "Active",
    "source": "Public Record"
  },
  {
    "id": "us-9",
    "lat": 47.1164,
    "lng": -122.5331,
    "name": "Joint Base Lewis-McChord",
    "city": "Tacoma",
    "country": "US",
    "type": "military",
    "category": "Joint Base",
    "branch": "Joint",
    "status": "Active",
    "source": "Public Record"
  },
  {
    "id": "us-10",
    "lat": 36.084,
    "lng": -115.1537,
    "name": "Area 51 (Groom Lake)",
    "city": "Groom Lake",
    "country": "US",
    "type": "military",
    "category": "Testing Range",
    "branch": "USAF",
    "status": "Active",
    "source": "Public Record"
  },
  {
    "id": "us-11",
    "lat": 33.4255,
    "lng": -111.9372,
    "name": "Luke AFB",
    "city": "Phoenix",
    "country": "US",
    "type": "military",
    "category": "Air Force Base",
    "branch": "USAF",
    "status": "Active",
    "source": "Public Record"
  },
  {
    "id": "us-12",
    "lat": 35.042,
    "lng": -85.308,
    "name": "Fort Campbell",
    "city": "Clarksville",
    "country": "US",
    "type": "military",
    "category": "Army Base",
    "branch": "US Army",
    "status": "Active",
    "source": "Public Record"
  },
  {
    "id": "us-13",
    "lat": 32.3792,
    "lng": -86.3077,
    "name": "Maxwell AFB",
    "city": "Montgomery",
    "country": "US",
    "type": "military",
    "category": "Training",
    "branch": "USAF",
    "status": "Active",
    "source": "Public Record"
  },
  {
    "id": "us-14",
    "lat": 13.4443,
    "lng": 144.7937,
    "name": "Andersen AFB",
    "city": "Guam",
    "country": "US",
    "type": "military",
    "category": "Air Force Base",
    "branch": "USAF",
    "status": "Active",
    "source": "Public Record"
  },
  {
    "id": "us-15",
    "lat": 52.7123,
    "lng": -1.8274,
    "name": "RAF Menwith Hill",
    "city": "Harrogate",
    "country": "UK",
    "type": "intelligence",
    "category": "SIGINT Station",
    "branch": "NSA/GCHQ",
    "status": "Active",
    "source": "Public Record"
  },
  {
    "id": "us-16",
    "lat": -35.2809,
    "lng": 149.13,
    "name": "Pine Gap",
    "city": "Alice Springs",
    "country": "Australia",
    "type": "intelligence",
    "category": "SIGINT Station",
    "branch": "CIA/ASD",
    "status": "Active",
    "source": "Public Record"
  },
  {
    "id": "us-17",
    "lat": 37.235,
    "lng": -115.8111,
    "name": "Tonopah Test Range",
    "city": "Tonopah",
    "country": "US",
    "type": "military",
    "category": "Testing Range",
    "branch": "USAF",
    "status": "Active",
    "source": "Public Record"
  },
  {
    "id": "us-18",
    "lat": 35.6762,
    "lng": 139.6503,
    "name": "DIHQ Tokyo",
    "city": "Tokyo",
    "country": "Japan",
    "type": "intelligence",
    "category": "Intelligence Center",
    "branch": "JSDF",
    "status": "Active",
    "source": "Public Record"
  },
  {
    "id": "us-19",
    "lat": 35.3192,
    "lng": 139.5467,
    "name": "Yokosuka Naval Base",
    "city": "Yokosuka",
    "country": "Japan",
    "type": "military",
    "category": "Naval Base",
    "branch": "JMSDF/US Navy",
    "status": "Active",
    "source": "Public Record"
  },
  {
    "id": "us-20",
    "lat": 26.3344,
    "lng": 127.8056,
    "name": "Kadena Air Base",
    "city": "Okinawa",
    "country": "Japan",
    "type": "military",
    "category": "Air Force Base",
    "branch": "USAF/JASDF",
    "status": "Active",
    "source": "Public Record"
  },
  {
    "id": "ru-1",
    "lat": 55.7558,
    "lng": 37.6173,
    "name": "Kremlin / General Staff",
    "city": "Moscow",
    "country": "Russia",
    "type": "military",
    "category": "Headquarters",
    "branch": "Russian Armed Forces",
    "status": "Active",
    "source": "Public Record"
  },
  {
    "id": "ru-2",
    "lat": 44.6167,
    "lng": 33.5254,
    "name": "Sevastopol Naval Base",
    "city": "Sevastopol",
    "country": "Russia",
    "type": "military",
    "category": "Naval Base",
    "branch": "Russian Navy",
    "status": "Active",
    "source": "Public Record"
  },
  {
    "id": "ru-3",
    "lat": 54.7104,
    "lng": 20.4522,
    "name": "Baltiysk Naval Base",
    "city": "Kaliningrad",
    "country": "Russia",
    "type": "military",
    "category": "Naval Base",
    "branch": "Russian Navy",
    "status": "Active",
    "source": "Public Record"
  },
  {
    "id": "ru-4",
    "lat": 68.9585,
    "lng": 33.0827,
    "name": "Severomorsk Naval Base",
    "city": "Severomorsk",
    "country": "Russia",
    "type": "military",
    "category": "Naval Base",
    "branch": "Northern Fleet",
    "status": "Active",
    "source": "Public Record"
  },
  {
    "id": "ru-5",
    "lat": 43.1155,
    "lng": 131.8855,
    "name": "Vladivostok Naval Base",
    "city": "Vladivostok",
    "country": "Russia",
    "type": "military",
    "category": "Naval Base",
    "branch": "Pacific Fleet",
    "status": "Active",
    "source": "Public Record"
  },
  {
    "id": "ru-6",
    "lat": 52.9651,
    "lng": 49.6984,
    "name": "Engels-2 Air Base",
    "city": "Engels",
    "country": "Russia",
    "type": "military",
    "category": "Strategic Bomber Base",
    "branch": "VKS",
    "status": "Active",
    "source": "Public Record"
  },
  {
    "id": "ru-7",
    "lat": 56.8389,
    "lng": 60.6057,
    "name": "Yekaterinburg (GRU)",
    "city": "Yekaterinburg",
    "country": "Russia",
    "type": "intelligence",
    "category": "Intelligence Center",
    "branch": "GRU",
    "status": "Active",
    "source": "Public Record"
  },
  {
    "id": "cn-1",
    "lat": 39.9042,
    "lng": 116.4074,
    "name": "PLA Central Military Commission",
    "city": "Beijing",
    "country": "China",
    "type": "military",
    "category": "Headquarters",
    "branch": "PLA",
    "status": "Active",
    "source": "Public Record"
  },
  {
    "id": "cn-2",
    "lat": 34.3416,
    "lng": 108.9398,
    "name": "Xi'an Satellite Control",
    "city": "Xi'an",
    "country": "China",
    "type": "military",
    "category": "Space Control",
    "branch": "PLASSF",
    "status": "Active",
    "source": "Public Record"
  },
  {
    "id": "cn-3",
    "lat": 18.2528,
    "lng": 109.5069,
    "name": "Yulin Naval Base (SSBN)",
    "city": "Sanya",
    "country": "China",
    "type": "military",
    "category": "Naval Base",
    "branch": "PLAN",
    "status": "Active",
    "source": "Public Record"
  },
  {
    "id": "cn-4",
    "lat": 31.2304,
    "lng": 121.4737,
    "name": "Shanghai Naval Base",
    "city": "Shanghai",
    "country": "China",
    "type": "military",
    "category": "Naval Base",
    "branch": "PLAN",
    "status": "Active",
    "source": "Public Record"
  },
  {
    "id": "cn-5",
    "lat": 22.3964,
    "lng": 114.1095,
    "name": "Hong Kong Garrison",
    "city": "Hong Kong",
    "country": "China",
    "type": "military",
    "category": "Garrison",
    "branch": "PLA HK Garrison",
    "status": "Active",
    "source": "Public Record"
  },
  {
    "id": "uk-1",
    "lat": 51.5074,
    "lng": -0.1278,
    "name": "MI6 Headquarters",
    "city": "London",
    "country": "UK",
    "type": "intelligence",
    "category": "Intelligence Center",
    "branch": "MI6/SIS",
    "status": "Active",
    "source": "Public Record"
  },
  {
    "id": "uk-2",
    "lat": 51.8969,
    "lng": -8.4863,
    "name": "GCHQ Bude",
    "city": "Cornwall",
    "country": "UK",
    "type": "intelligence",
    "category": "SIGINT Station",
    "branch": "GCHQ",
    "status": "Active",
    "source": "Public Record"
  },
  {
    "id": "uk-3",
    "lat": 52.2053,
    "lng": 0.1218,
    "name": "RAF Mildenhall",
    "city": "Mildenhall",
    "country": "UK",
    "type": "military",
    "category": "Air Force Base",
    "branch": "USAF/RAF",
    "status": "Active",
    "source": "Public Record"
  },
  {
    "id": "uk-4",
    "lat": 51.1333,
    "lng": -1.0167,
    "name": "RAF Croughton",
    "city": "Croughton",
    "country": "UK",
    "type": "intelligence",
    "category": "SIGINT Station",
    "branch": "USAF",
    "status": "Active",
    "source": "Public Record"
  },
  {
    "id": "uk-5",
    "lat": 50.7184,
    "lng": -1.8735,
    "name": "Portsmouth Naval Base",
    "city": "Portsmouth",
    "country": "UK",
    "type": "military",
    "category": "Naval Base",
    "branch": "Royal Navy",
    "status": "Active",
    "source": "Public Record"
  },
  {
    "id": "uk-6",
    "lat": 54.9069,
    "lng": -1.3838,
    "name": "GCHQ Scarborough",
    "city": "Scarborough",
    "country": "UK",
    "type": "intelligence",
    "category": "SIGINT Station",
    "branch": "GCHQ",
    "status": "Active",
    "source": "Public Record"
  },
  {
    "id": "il-1",
    "lat": 32.0853,
    "lng": 34.7818,
    "name": "Mossad Headquarters",
    "city": "Tel Aviv",
    "country": "Israel",
    "type": "intelligence",
    "category": "Intelligence Center",
    "branch": "Mossad",
    "status": "Active",
    "source": "Public Record"
  },
  {
    "id": "il-2",
    "lat": 31.7683,
    "lng": 35.2137,
    "name": "Unit 8200 Herzliya",
    "city": "Herzliya",
    "country": "Israel",
    "type": "intelligence",
    "category": "SIGINT Unit",
    "branch": "IDF",
    "status": "Active",
    "source": "Public Record"
  },
  {
    "id": "il-3",
    "lat": 31.253,
    "lng": 34.7915,
    "name": "Dimona Nuclear Facility",
    "city": "Dimona",
    "country": "Israel",
    "type": "nuclear",
    "category": "Nuclear Research",
    "branch": "IAEC",
    "status": "Active",
    "source": "Public Record"
  },
  {
    "id": "il-4",
    "lat": 32.794,
    "lng": 34.9896,
    "name": "Haifa Naval Base",
    "city": "Haifa",
    "country": "Israel",
    "type": "military",
    "category": "Naval Base",
    "branch": "Israeli Navy",
    "status": "Active",
    "source": "Public Record"
  },
  {
    "id": "fr-1",
    "lat": 48.8566,
    "lng": 2.3522,
    "name": "DGSE Headquarters",
    "city": "Paris",
    "country": "France",
    "type": "intelligence",
    "category": "Intelligence Center",
    "branch": "DGSE",
    "status": "Active",
    "source": "Public Record"
  },
  {
    "id": "fr-2",
    "lat": 43.2965,
    "lng": 5.3698,
    "name": "Toulon Naval Base",
    "city": "Toulon",
    "country": "France",
    "type": "military",
    "category": "Naval Base",
    "branch": "Marine Nationale",
    "status": "Active",
    "source": "Public Record"
  },
  {
    "id": "fr-3",
    "lat": 44.9334,
    "lng": 4.8924,
    "name": "Ile Longue SSBN Base",
    "city": "Brest",
    "country": "France",
    "type": "military",
    "category": "Nuclear Sub Base",
    "branch": "Marine Nationale",
    "status": "Active",
    "source": "Public Record"
  },
  {
    "id": "de-1",
    "lat": 50.1109,
    "lng": 8.6821,
    "name": "BND Headquarters",
    "city": "Berlin",
    "country": "Germany",
    "type": "intelligence",
    "category": "Intelligence Center",
    "branch": "BND",
    "status": "Active",
    "source": "Public Record"
  },
  {
    "id": "de-2",
    "lat": 53.5511,
    "lng": 9.9937,
    "name": "Ramstein Air Base",
    "city": "Ramstein",
    "country": "Germany",
    "type": "military",
    "category": "Air Force Base",
    "branch": "USAF",
    "status": "Active",
    "source": "Public Record"
  },
  {
    "id": "nato-1",
    "lat": 50.4501,
    "lng": 30.5234,
    "name": "NATO SHAPE",
    "city": "Mons",
    "country": "Belgium",
    "type": "military",
    "category": "Headquarters",
    "branch": "NATO",
    "status": "Active",
    "source": "Public Record"
  },
  {
    "id": "nato-2",
    "lat": 50.8503,
    "lng": 4.3517,
    "name": "NATO Headquarters",
    "city": "Brussels",
    "country": "Belgium",
    "type": "military",
    "category": "Headquarters",
    "branch": "NATO",
    "status": "Active",
    "source": "Public Record"
  },
  {
    "id": "in-1",
    "lat": 28.6139,
    "lng": 77.209,
    "name": "RAW Headquarters",
    "city": "New Delhi",
    "country": "India",
    "type": "intelligence",
    "category": "Intelligence Center",
    "branch": "RAW",
    "status": "Active",
    "source": "Public Record"
  },
  {
    "id": "in-2",
    "lat": 19.076,
    "lng": 72.8777,
    "name": "Mumbai Naval Base",
    "city": "Mumbai",
    "country": "India",
    "type": "military",
    "category": "Naval Base",
    "branch": "Indian Navy",
    "status": "Active",
    "source": "Public Record"
  },
  {
    "id": "in-3",
    "lat": 13.0827,
    "lng": 80.2707,
    "name": "Kalpakkam Nuclear",
    "city": "Chennai",
    "country": "India",
    "type": "nuclear",
    "category": "Nuclear Research",
    "branch": "DAE",
    "status": "Active",
    "source": "IAEA"
  },
  {
    "id": "pk-1",
    "lat": 33.6844,
    "lng": 73.0479,
    "name": "ISI Headquarters",
    "city": "Islamabad",
    "country": "Pakistan",
    "type": "intelligence",
    "category": "Intelligence Center",
    "branch": "ISI",
    "status": "Active",
    "source": "Public Record"
  },
  {
    "id": "pk-2",
    "lat": 24.8607,
    "lng": 67.0011,
    "name": "Karachi Naval Base",
    "city": "Karachi",
    "country": "Pakistan",
    "type": "military",
    "category": "Naval Base",
    "branch": "Pakistan Navy",
    "status": "Active",
    "source": "Public Record"
  },
  {
    "id": "pk-3",
    "lat": 31.5204,
    "lng": 74.3587,
    "name": "Kahuta Nuclear Facility",
    "city": "Kahuta",
    "country": "Pakistan",
    "type": "nuclear",
    "category": "Nuclear Research",
    "branch": "PAEC",
    "status": "Active",
    "source": "Public Record"
  },
  {
    "id": "kp-1",
    "lat": 39.0392,
    "lng": 125.7625,
    "name": "KPA Headquarters",
    "city": "Pyongyang",
    "country": "North Korea",
    "type": "military",
    "category": "Headquarters",
    "branch": "KPA",
    "status": "Active",
    "source": "Public Record"
  },
  {
    "id": "kp-2",
    "lat": 39.0194,
    "lng": 125.7381,
    "name": "Yongbyon Nuclear Facility",
    "city": "Yongbyon",
    "country": "North Korea",
    "type": "nuclear",
    "category": "Nuclear Research",
    "branch": "NA",
    "status": "Active",
    "source": "Public Record"
  },
  {
    "id": "kp-3",
    "lat": 40.09,
    "lng": 128.33,
    "name": "Musudan-ri Launch Site",
    "city": "Musudan-ri",
    "country": "North Korea",
    "type": "military",
    "category": "Missile Launch Site",
    "branch": "KPA",
    "status": "Active",
    "source": "Public Record"
  },
  {
    "id": "ir-1",
    "lat": 35.6892,
    "lng": 51.389,
    "name": "IRGC Headquarters",
    "city": "Tehran",
    "country": "Iran",
    "type": "military",
    "category": "Headquarters",
    "branch": "IRGC",
    "status": "Active",
    "source": "Public Record"
  },
  {
    "id": "ir-2",
    "lat": 32.6546,
    "lng": 51.668,
    "name": "Natanz Nuclear Facility",
    "city": "Natanz",
    "country": "Iran",
    "type": "nuclear",
    "category": "Uranium Enrichment",
    "branch": "AEOI",
    "status": "Active",
    "source": "Public Record"
  },
  {
    "id": "ir-3",
    "lat": 27.1833,
    "lng": 56.2667,
    "name": "Bandar Abbas Naval Base",
    "city": "Bandar Abbas",
    "country": "Iran",
    "type": "military",
    "category": "Naval Base",
    "branch": "Iranian Navy",
    "status": "Active",
    "source": "Public Record"
  },
  {
    "id": "ir-4",
    "lat": 34.3142,
    "lng": 47.065,
    "name": "Fordow Nuclear Facility",
    "city": "Fordow",
    "country": "Iran",
    "type": "nuclear",
    "category": "Uranium Enrichment",
    "branch": "AEOI",
    "status": "Active",
    "source": "Public Record"
  },
  {
    "id": "ir-5",
    "lat": 35.7153,
    "lng": 51.4053,
    "name": "Parchin Military Complex",
    "city": "Tehran",
    "country": "Iran",
    "type": "military",
    "category": "Missile Test Site",
    "branch": "IRGC",
    "status": "Active",
    "source": "Public Record"
  },
  {
    "id": "kr-1",
    "lat": 37.5665,
    "lng": 126.978,
    "name": "NIS Headquarters",
    "city": "Seoul",
    "country": "South Korea",
    "type": "intelligence",
    "category": "Intelligence Center",
    "branch": "NIS",
    "status": "Active",
    "source": "Public Record"
  },
  {
    "id": "kr-2",
    "lat": 36.3504,
    "lng": 127.3845,
    "name": "Osan Air Base",
    "city": "Osan",
    "country": "South Korea",
    "type": "military",
    "category": "Air Force Base",
    "branch": "USAF/ROKAF",
    "status": "Active",
    "source": "Public Record"
  },
  {
    "id": "kr-3",
    "lat": 37.4563,
    "lng": 126.7052,
    "name": "Camp Humphreys",
    "city": "Pyeongtaek",
    "country": "South Korea",
    "type": "military",
    "category": "Army Base",
    "branch": "US Army",
    "status": "Active",
    "source": "Public Record"
  },
  {
    "id": "au-1",
    "lat": -35.2809,
    "lng": 149.13,
    "name": "ASD Headquarters",
    "city": "Canberra",
    "country": "Australia",
    "type": "intelligence",
    "category": "Intelligence Center",
    "branch": "ASD",
    "status": "Active",
    "source": "Public Record"
  },
  {
    "id": "au-2",
    "lat": -12.4634,
    "lng": 130.8456,
    "name": "RAAF Base Darwin",
    "city": "Darwin",
    "country": "Australia",
    "type": "military",
    "category": "Air Force Base",
    "branch": "RAAF",
    "status": "Active",
    "source": "Public Record"
  },
  {
    "id": "au-3",
    "lat": -31.9505,
    "lng": 115.8605,
    "name": "HMAS Stirling",
    "city": "Perth",
    "country": "Australia",
    "type": "military",
    "category": "Naval Base",
    "branch": "RAN",
    "status": "Active",
    "source": "Public Record"
  },
  {
    "id": "tr-1",
    "lat": 41.0082,
    "lng": 28.9784,
    "name": "MIT Headquarters",
    "city": "Istanbul",
    "country": "Turkey",
    "type": "intelligence",
    "category": "Intelligence Center",
    "branch": "MIT",
    "status": "Active",
    "source": "Public Record"
  },
  {
    "id": "tr-2",
    "lat": 39.9334,
    "lng": 32.8597,
    "name": "Incirlik Air Base",
    "city": "Ankara",
    "country": "Turkey",
    "type": "military",
    "category": "Air Force Base",
    "branch": "TUAF/USAF",
    "status": "Active",
    "source": "Public Record"
  },
  {
    "id": "sa-1",
    "lat": 24.7136,
    "lng": 46.6753,
    "name": "GIP Headquarters",
    "city": "Riyadh",
    "country": "Saudi Arabia",
    "type": "intelligence",
    "category": "Intelligence Center",
    "branch": "GIP",
    "status": "Active",
    "source": "Public Record"
  },
  {
    "id": "sa-2",
    "lat": 26.4207,
    "lng": 50.0888,
    "name": "King Fahd Naval Base",
    "city": "Jubail",
    "country": "Saudi Arabia",
    "type": "military",
    "category": "Naval Base",
    "branch": "RSNF",
    "status": "Active",
    "source": "Public Record"
  },
  {
    "id": "eg-1",
    "lat": 30.0444,
    "lng": 31.2357,
    "name": "GIS Headquarters",
    "city": "Cairo",
    "country": "Egypt",
    "type": "intelligence",
    "category": "Intelligence Center",
    "branch": "GIS",
    "status": "Active",
    "source": "Public Record"
  },
  {
    "id": "eg-2",
    "lat": 31.2001,
    "lng": 29.9187,
    "name": "Alexandria Naval Base",
    "city": "Alexandria",
    "country": "Egypt",
    "type": "military",
    "category": "Naval Base",
    "branch": "Egyptian Navy",
    "status": "Active",
    "source": "Public Record"
  },
  {
    "id": "nuc-1",
    "lat": 51.4214,
    "lng": -0.2736,
    "name": "Sellafield Nuclear",
    "city": "Cumbria",
    "country": "UK",
    "type": "nuclear",
    "category": "Nuclear Reprocessing",
    "branch": "Sellafield Ltd",
    "status": "Active",
    "source": "IAEA"
  },
  {
    "id": "nuc-2",
    "lat": 47.5483,
    "lng": 7.5878,
    "name": "Fessenheim Nuclear",
    "city": "Fessenheim",
    "country": "France",
    "type": "nuclear",
    "category": "Nuclear Power Plant",
    "branch": "EDF",
    "status": "Decommissioned",
    "source": "IAEA"
  },
  {
    "id": "nuc-3",
    "lat": 50.0878,
    "lng": 19.9619,
    "name": "Chernobyl Exclusion Zone",
    "city": "Pripyat",
    "country": "Ukraine",
    "type": "nuclear",
    "category": "Nuclear Disaster Site",
    "branch": "SSE ChNPP",
    "status": "Decommissioned",
    "source": "IAEA"
  },
  {
    "id": "nuc-4",
    "lat": 37.4219,
    "lng": 141.0329,
    "name": "Fukushima Daiichi",
    "city": "Okuma",
    "country": "Japan",
    "type": "nuclear",
    "category": "Nuclear Disaster Site",
    "branch": "TEPCO",
    "status": "Decommissioned",
    "source": "IAEA"
  },
  {
    "id": "nuc-5",
    "lat": 55.7522,
    "lng": 37.6156,
    "name": "Kurchatov Institute",
    "city": "Moscow",
    "country": "Russia",
    "type": "nuclear",
    "category": "Nuclear Research",
    "branch": "Rosatom",
    "status": "Active",
    "source": "IAEA"
  },
  {
    "id": "nuc-6",
    "lat": 39.7589,
    "lng": 140.0656,
    "name": "Rokkasho Reprocessing",
    "city": "Aomori",
    "country": "Japan",
    "type": "nuclear",
    "category": "Nuclear Reprocessing",
    "branch": "JNFL",
    "status": "Active",
    "source": "IAEA"
  },
  {
    "id": "nuc-7",
    "lat": 28.5383,
    "lng": 77.209,
    "name": "Narora Atomic Power",
    "city": "Bulandshahr",
    "country": "India",
    "type": "nuclear",
    "category": "Nuclear Power Plant",
    "branch": "NPCIL",
    "status": "Active",
    "source": "IAEA"
  },
  {
    "id": "nuc-8",
    "lat": 35.6892,
    "lng": 51.389,
    "name": "Bushehr Nuclear Plant",
    "city": "Bushehr",
    "country": "Iran",
    "type": "nuclear",
    "category": "Nuclear Power Plant",
    "branch": "AEOI",
    "status": "Active",
    "source": "IAEA"
  }
]